zip,lat,lng,city,state_id,state_name,zcta,parent_zcta,population,density,county_fips,county_name,county_weights,county_names_all,county_fips_all,imprecise,military,timezone
601,18.18027,-66.75266,Adjuntas,PR,Puerto Rico,,,17126,102.6,72001,Adjuntas,"{""72001"": 98.73, ""72141"": 1.27}",Adjuntas|Utuado,72001|72141,FALSE,FALSE,America/Puerto_Rico
602,18.36075,-67.17541,Aguada,PR,Puerto Rico,FALSE,,37895,482.5,72003,Aguada,"{""72003"": 100}",Aguada,72003,FALSE,FALSE,America/Puerto_Rico
603,18.45744,-67.12225,Aguadilla,PR,Puerto Rico,TRUE,,49136,552.4,72005,Aguadilla,"{""72005"": 99.76, ""72099"": 0.24}",Aguadilla|Moca,72005|72099,FALSE,FALSE,America/Puerto_Rico
606,18.16585,-66.93716,Maricao,PR,Puerto Rico,TRUE,,5751,50.1,72093,Maricao,"{""72093"": 82.26, ""72153"": 11.68, ""72121"": 6.06}",Maricao|Yauco|Sabana Grande,72093|72153|72121,FALSE,FALSE,America/Puerto_Rico
610,18.2911,-67.12243,Anasco,PR,Puerto Rico,TRUE,,26153,272.1,72011,AГ±asco,"{""72011"": 96.71, ""72099"": 2.81, ""72083"": 0.37, ""72003"": 0.11}",AГ±asco|Moca|Las MarГ­as|Aguada,72011|72099|72083|72003,FALSE,FALSE,America/Puerto_Rico
610,18.27698,-66.80688,Angeles,PR,Puerto Rico,TRUE,,1283,46.5,72141,Utuado,"{""72141"": 100}",Utuado,72141,FALSE,FALSE,America/Puerto_Rico
610,18.41283,-66.7051,Arecibo,PR,Puerto Rico,TRUE,,64090,325,72013,Arecibo,"{""72013"": 98.86, ""72065"": 0.94, ""72017"": 0.2}",Arecibo|Hatillo|Barceloneta,72013|72065|72017,FALSE,FALSE,America/Puerto_Rico
610,18.41878,-66.6679,Bajadero,PR,Puerto Rico,TRUE,,10186,361.3,72013,Arecibo,"{""72013"": 100}",Arecibo,72013,FALSE,FALSE,America/Puerto_Rico
610,18.31283,-66.7051,Arecibo,PR,Puerto Rico,TRUE,,64090,325,72013,Arecibo,"{""72013"": 98.86, ""72065"": 0.94, ""72017"": 0.2}",Arecibo|Hatillo|Barceloneta,72013|72065|72017,FALSE,FALSE,America/Puerto_Rico